{
    "Vienna": {
        "city": "Vienna",
        "country": "Austria",
        "coordinates": {
            "latitude": 48.2,
            "longitude": 16.38
        },
        "current_weather": {
            "temperature": 8.4,
            "windspeed": 14.3,
            "weathercode": 61,
            "time": "2026-02-24T18:15"
        }
    },
    "Berlin": {
        "city": "Berlin",
        "country": "Germany",
        "coordinates": {
            "latitude": 52.52,
            "longitude": 13.4
        },
        "current_weather": {
            "temperature": 7.1,
            "windspeed": 4.6,
            "weathercode": 2,
            "time": "2026-02-24T18:15"
        }
    },
    "Paris": {
        "city": "Paris",
        "country": "France",
        "coordinates": {
            "latitude": 48.86,
            "longitude": 2.3599997
        },
        "current_weather": {
            "temperature": 14.7,
            "windspeed": 10.2,
            "weathercode": 2,
            "time": "2026-02-24T18:15"
        }
    },
    "Rome": {
        "city": "Rome",
        "country": "Italy",
        "coordinates": {
            "latitude": 41.875,
            "longitude": 12.5
        },
        "current_weather": {
            "temperature": 14.5,
            "windspeed": 6.4,
            "weathercode": 2,
            "time": "2026-02-24T18:15"
        }
    },
    "Madrid": {
        "city": "Madrid",
        "country": "Spain",
        "coordinates": {
            "latitude": 40.4375,
            "longitude": -3.6875
        },
        "current_weather": {
            "temperature": 19.0,
            "windspeed": 6.1,
            "weathercode": 1,
            "time": "2026-02-24T18:15"
        }
    },
    "Warsaw": {
        "city": "Warsaw",
        "country": "Poland",
        "coordinates": {
            "latitude": 52.23009,
            "longitude": 21.017075
        },
        "current_weather": {
            "temperature": 1.7,
            "windspeed": 17.6,
            "weathercode": 3,
            "time": "2026-02-24T18:15"
        }
    },
    "Amsterdam": {
        "city": "Amsterdam",
        "country": "Netherlands",
        "coordinates": {
            "latitude": 52.366,
            "longitude": 4.901
        },
        "current_weather": {
            "temperature": 12.0,
            "windspeed": 8.3,
            "weathercode": 3,
            "time": "2026-02-24T18:15"
        }
    },
    "Brussels": {
        "city": "Brussels",
        "country": "Belgium",
        "coordinates": {
            "latitude": 50.854,
            "longitude": 4.35
        },
        "current_weather": {
            "temperature": 13.6,
            "windspeed": 5.4,
            "weathercode": 3,
            "time": "2026-02-24T18:15"
        }
    }
}